[
  {
    "id": "guui_001",
    "type": "share",
    "title": "청양고추 한 봉지",
    "description": "본가에서 가져왔는데 너무 많아요. 매운 것 좋아하시는 분!",
    "lat": 37.5452, "lng": 127.0865,
    "address": "구의1동 주민센터 앞",
    "createdAt": "2026-05-14T09:00:00Z",
    "expiresAt": "2026-05-16T23:59:00Z",
    "authorId": "user_r01"
  },
  {
    "id": "guui_002",
    "type": "groupbuy",
    "title": "삼겹살 2kg 공구",
    "description": "동네 정육점 행사 중입니다. 500g씩 4명 나눠요.",
    "lat": 37.5375, "lng": 127.0858,
    "address": "구의역 1번 출구 인근",
    "groupBuy": { "current": 2, "target": 4 },
    "createdAt": "2026-05-14T10:30:00Z",
    "expiresAt": "2026-05-15T18:00:00Z",
    "authorId": "user_r02"
  },
  {
    "id": "guui_003",
    "type": "exchange",
    "title": "진라면 매운맛 ↔ 순한맛",
    "description": "잘못 샀어요. 5개입 한 번들 교환 원합니다.",
    "lat": 37.5421, "lng": 127.0912,
    "address": "구의3동 광진우체국 앞",
    "createdAt": "2026-05-14T11:15:00Z",
    "expiresAt": "2026-05-20T23:59:00Z",
    "authorId": "user_r03"
  },
  {
    "id": "guui_004",
    "type": "share",
    "title": "베이글 2개 (미개봉)",
    "description": "아침에 샀는데 배불러서 못 먹겠네요. 스태디아 카페 근처.",
    "lat": 37.5445, "lng": 127.0825,
    "address": "구의동 어린이대공원 후문 쪽",
    "createdAt": "2026-05-14T14:20:00Z",
    "expiresAt": "2026-05-14T22:00:00Z",
    "authorId": "user_r04"
  },
  {
    "id": "guui_005",
    "type": "groupbuy",
    "title": "햇반 36개 박스 공구",
    "description": "박스로 사면 훨씬 싸요! 12개씩 3명 모집.",
    "lat": 37.5348, "lng": 127.0935,
    "address": "강변역 테크노마트 정문",
    "groupBuy": { "current": 1, "target": 3 },
    "createdAt": "2026-05-14T08:45:00Z",
    "expiresAt": "2026-05-17T12:00:00Z",
    "authorId": "user_r05"
  },
  {
    "id": "guui_006",
    "type": "share",
    "title": "콜라 1.25L",
    "description": "배달 음식 시키고 받은 건데 탄산 안 마셔서 나눔해요.",
    "lat": 37.5412, "lng": 127.0878,
    "address": "구의중학교 정문 앞",
    "createdAt": "2026-05-14T13:00:00Z",
    "expiresAt": "2026-05-15T23:59:00Z",
    "authorId": "user_r06"
  },
  {
    "id": "guui_007",
    "type": "exchange",
    "title": "감자 3개 ↔ 당근 1개",
    "description": "카레 하려는데 당근이 딱 하나 부족합니다!",
    "lat": 37.5478, "lng": 127.0901,
    "address": "아차산역 3번 출구 인근",
    "createdAt": "2026-05-14T12:30:00Z",
    "expiresAt": "2026-05-15T15:00:00Z",
    "authorId": "user_r07"
  },
  {
    "id": "guui_008",
    "type": "groupbuy",
    "title": "대파 한 단 쉐어",
    "description": "대파 한 단이 너무 커서 절반 나누실 분 찾아요.",
    "lat": 37.5388, "lng": 127.0842,
    "address": "구의2동 주택가 골목",
    "groupBuy": { "current": 1, "target": 2 },
    "createdAt": "2026-05-14T09:20:00Z",
    "expiresAt": "2026-05-15T10:00:00Z",
    "authorId": "user_r08"
  },
  {
    "id": "guui_009",
    "type": "share",
    "title": "참기름 약간",
    "description": "자취방 빼면서 남은 참기름 나눔합니다. 유통기한 넉넉해요.",
    "lat": 37.5435, "lng": 127.0950,
    "address": "구의동 동서울터미널 뒤편",
    "createdAt": "2026-05-14T15:10:00Z",
    "expiresAt": "2026-05-16T18:00:00Z",
    "authorId": "user_r09"
  },
  {
    "id": "guui_010",
    "type": "groupbuy",
    "title": "체리 500g 공구",
    "description": "이마트 트레이더스에서 산 체리입니다. 양이 많아 나눠요.",
    "lat": 37.5360, "lng": 127.0890,
    "address": "구의동 현대아파트 단지 내",
    "groupBuy": { "current": 2, "target": 5 },
    "createdAt": "2026-05-14T11:00:00Z",
    "expiresAt": "2026-05-15T20:00:00Z",
    "authorId": "user_r10"
  },
  {
    "id": "guui_011",
    "type": "share",
    "title": "조각 케이크",
    "description": "생일 케이크인데 다 못 먹어서 한 조각 깨끗하게 덜어놨어요.",
    "lat": 37.5465, "lng": 127.0830,
    "address": "구의동 래미안 파크사이드 앞",
    "createdAt": "2026-05-14T16:00:00Z",
    "expiresAt": "2026-05-14T23:00:00Z",
    "authorId": "user_r11"
  },
  {
    "id": "guui_012",
    "type": "exchange",
    "title": "스팸 200g ↔ 참치캔",
    "description": "참치 마요가 먹고 싶어서 스팸이랑 바꾸실 분!",
    "lat": 37.5400, "lng": 127.0920,
    "address": "구의초등학교 정문",
    "createdAt": "2026-05-14T10:00:00Z",
    "expiresAt": "2026-05-18T23:59:00Z",
    "authorId": "user_r12"
  },
  {
    "id": "guui_013",
    "type": "share",
    "title": "애호박 1개",
    "description": "된장찌개 끓이고 하나 남았는데 필요하신 분 가져가세요.",
    "lat": 37.5440, "lng": 127.0880,
    "address": "구의역 2번 출구 쪽 카페 앞",
    "createdAt": "2026-05-14T13:40:00Z",
    "expiresAt": "2026-05-15T20:00:00Z",
    "authorId": "user_r13"
  },
  {
    "id": "guui_014",
    "type": "groupbuy",
    "title": "두부 3모 세트",
    "description": "시장에서 3모 묶음으로 샀어요. 1모씩 가져가실 분?",
    "lat": 37.5395, "lng": 127.0860,
    "address": "구의시장 입구",
    "groupBuy": { "current": 1, "target": 3 },
    "createdAt": "2026-05-14T11:30:00Z",
    "expiresAt": "2026-05-15T12:00:00Z",
    "authorId": "user_r14"
  },
  {
    "id": "guui_015",
    "type": "share",
    "title": "바나나 2개",
    "description": "너무 익기 전에 빨리 드실 분 나눔합니다.",
    "lat": 37.5355, "lng": 127.0945,
    "address": "강변역 버스환승센터 근처",
    "createdAt": "2026-05-14T16:50:00Z",
    "expiresAt": "2026-05-14T23:59:00Z",
    "authorId": "user_r15"
  },
  {
    "id": "guui_016",
    "type": "exchange",
    "title": "딸기잼 ↔ 땅콩버터",
    "description": "딸기잼 미개봉입니다. 땅콩버터 좋아하시는 분!",
    "lat": 37.5410, "lng": 127.0900,
    "address": "구의동 소방서 건너편",
    "createdAt": "2026-05-14T12:00:00Z",
    "expiresAt": "2026-05-19T23:59:00Z",
    "authorId": "user_r16"
  },
  {
    "id": "guui_017",
    "type": "groupbuy",
    "title": "물 2L 12병",
    "description": "쿠팡 로켓배송 같이 시켜요. 6병씩 나눕니다.",
    "lat": 37.5430, "lng": 127.0850,
    "address": "구의동 빌라촌 단지",
    "groupBuy": { "current": 1, "target": 2 },
    "createdAt": "2026-05-14T09:10:00Z",
    "expiresAt": "2026-05-15T18:00:00Z",
    "authorId": "user_r17"
  },
  {
    "id": "guui_018",
    "type": "share",
    "title": "상추 듬뿍",
    "description": "고기 먹고 상추가 너무 많이 남았어요. 씻어서 보관 중입니다.",
    "lat": 37.5380, "lng": 127.0870,
    "address": "구의역 푸르지오 아파트",
    "createdAt": "2026-05-14T17:15:00Z",
    "expiresAt": "2026-05-15T10:00:00Z",
    "authorId": "user_r18"
  },
  {
    "id": "guui_019",
    "type": "exchange",
    "title": "카누 10스틱 ↔ 믹스커피",
    "description": "아메리카노보다 달달한 게 당기네요. 교환 원해요!",
    "lat": 37.5425, "lng": 127.0835,
    "address": "구의동 건대 후문 근처",
    "createdAt": "2026-05-14T14:00:00Z",
    "expiresAt": "2026-05-21T23:59:00Z",
    "authorId": "user_r19"
  },
  {
    "id": "guui_020",
    "type": "share",
    "title": "우유 500ml",
    "description": "유통기한 내일(5/15)까지입니다. 오늘 바로 드실 분!",
    "lat": 37.5370, "lng": 127.0925,
    "address": "구의동 대림아파트 근처 편의점 앞",
    "createdAt": "2026-05-14T17:30:00Z",
    "expiresAt": "2026-05-15T12:00:00Z",
    "authorId": "user_r20"
  },
  {
    "id": "guui_021",
    "type": "share",
    "title": "방울토마토 한 팩",
    "description": "마트에서 1+1으로 샀는데 혼자 다 못 먹을 것 같아요. 싱싱할 때 나눔합니다.",
    "lat": 37.5458, "lng": 127.0872,
    "address": "구의동 현대6차 아파트 정문",
    "createdAt": "2026-05-14T14:10:00Z",
    "expiresAt": "2026-05-16T12:00:00Z",
    "authorId": "user_r21"
  },
  {
    "id": "guui_022",
    "type": "groupbuy",
    "title": "반려견 간식(츄르) 공구",
    "description": "대용량 박스 같이 나눠요! 20개씩 3명 모집합니다.",
    "lat": 37.5392, "lng": 127.0915,
    "address": "구의3동 주민센터 인근 애견카페 앞",
    "groupBuy": { "current": 1, "target": 3 },
    "createdAt": "2026-05-14T13:45:00Z",
    "expiresAt": "2026-05-18T18:00:00Z",
    "authorId": "user_r22"
  },
  {
    "id": "guui_023",
    "type": "exchange",
    "title": "비빔면 3봉 ↔ 짜파게티",
    "description": "매운 게 안 당겨서 짜장라면으로 교환 원해요. 유통기한 내년까지입니다.",
    "lat": 37.5428, "lng": 127.0845,
    "address": "구의역 4번 출구 앞 편의점",
    "createdAt": "2026-05-14T15:00:00Z",
    "expiresAt": "2026-05-20T23:59:00Z",
    "authorId": "user_r23"
  },
  {
    "id": "guui_024",
    "type": "share",
    "title": "양파 2개와 마늘 몇 알",
    "description": "요리하고 남은 자투리 채소입니다. 오늘 당장 필요하신 분 계신가요?",
    "lat": 37.5365, "lng": 127.0885,
    "address": "구의동 미가로 입구",
    "createdAt": "2026-05-14T14:30:00Z",
    "expiresAt": "2026-05-15T10:00:00Z",
    "authorId": "user_r24"
  },
  {
    "id": "guui_025",
    "type": "groupbuy",
    "title": "세탁세제 2.5L 1+1",
    "description": "하나씩 나누실 분 찾습니다. 무거워서 저희 집 근처로 오셔야 해요!",
    "lat": 37.5482, "lng": 127.0910,
    "address": "아차산역 인근 빌라 주차장",
    "groupBuy": { "current": 1, "target": 2 },
    "createdAt": "2026-05-14T12:20:00Z",
    "expiresAt": "2026-05-17T20:00:00Z",
    "authorId": "user_r25"
  }
]